{
  "parks": [
    {
      "id": "386baca7-e7b6-40a5-b0cd-55cea30db147",
      "name": "Acadia",
      "state": "ME",
      "lat": 44.409286,
      "lon": -68.247501,
      "source_id": "acad",
      "notes": null,
      "created_at": "2025-11-25T04:01:49.827073"
    },
    {
      "id": "e56d5d90-d256-4cab-ba58-87ed1dc19bd5",
      "name": "Arches",
      "state": "UT",
      "lat": 38.72261844,
      "lon": -109.5863666,
      "source_id": "arch",
      "notes": null,
      "created_at": "2025-11-25T04:01:49.868581"
    },
    {
      "id": "0c47c705-df2a-4e5b-9486-b6e00948c800",
      "name": "Badlands",
      "state": "SD",
      "lat": 43.68584846,
      "lon": -102.482942,
      "source_id": "badl",
      "notes": null,
      "created_at": "2025-11-25T04:01:49.897122"
    },
    {
      "id": "a6d24095-4c95-4e86-bb24-fcc2dcd46423",
      "name": "Big Bend",
      "state": "TX",
      "lat": 29.29817767,
      "lon": -103.2297897,
      "source_id": "bibe",
      "notes": null,
      "created_at": "2025-11-25T04:01:49.919800"
    },
    {
      "id": "5b547f05-5734-44d3-ba29-217f7c4f4a54",
      "name": "Biscayne",
      "state": "FL",
      "lat": 25.490587,
      "lon": -80.21023851,
      "source_id": "bisc",
      "notes": null,
      "created_at": "2025-11-25T04:01:49.944946"
    },
    {
      "id": "953f3d9d-c027-4b35-84f2-9dcbd92a674e",
      "name": "Black Canyon Of The Gunnison",
      "state": "CO",
      "lat": 38.57779869,
      "lon": -107.7242756,
      "source_id": "blca",
      "notes": null,
      "created_at": "2025-11-25T04:01:49.971725"
    },
    {
      "id": "c3299355-35a9-4389-8efa-182721df0556",
      "name": "Bryce Canyon",
      "state": "UT",
      "lat": 37.58399144,
      "lon": -112.1826689,
      "source_id": "brca",
      "notes": null,
      "created_at": "2025-11-25T04:01:49.996177"
    },
    {
      "id": "b8ab659e-27a2-4853-aab0-2f174ce12150",
      "name": "Canyonlands",
      "state": "UT",
      "lat": 38.24555783,
      "lon": -109.8801624,
      "source_id": "cany",
      "notes": null,
      "created_at": "2025-11-25T04:01:50.020276"
    },
    {
      "id": "43bb0db9-6c0e-42b9-88e3-a1b583ba88a8",
      "name": "Capitol Reef",
      "state": "UT",
      "lat": 38.2821653131,
      "lon": -111.247048378,
      "source_id": "care",
      "notes": null,
      "created_at": "2025-11-25T04:01:50.044959"
    },
    {
      "id": "689d46cf-9ed1-4677-8b44-d6f6e1f2d6e0",
      "name": "Carlsbad Caverns",
      "state": "NM",
      "lat": 32.14089463,
      "lon": -104.5529688,
      "source_id": "cave",
      "notes": null,
      "created_at": "2025-11-25T04:01:50.068695"
    },
    {
      "id": "3b89804f-b35d-4a27-b803-bd87070972bb",
      "name": "Channel Islands",
      "state": "CA",
      "lat": 33.98680093,
      "lon": -119.9112735,
      "source_id": "chis",
      "notes": null,
      "created_at": "2025-11-25T04:01:50.126538"
    },
    {
      "id": "786bd944-5113-4fe5-a8e6-ad5e0343c190",
      "name": "Congaree",
      "state": "SC",
      "lat": 33.79187523,
      "lon": -80.74867805,
      "source_id": "cong",
      "notes": null,
      "created_at": "2025-11-25T04:01:50.150745"
    },
    {
      "id": "9bf34d76-b8e9-4b66-a7a7-b431a7d342e0",
      "name": "Crater Lake",
      "state": "OR",
      "lat": 42.94065854,
      "lon": -122.1338414,
      "source_id": "crla",
      "notes": null,
      "created_at": "2025-11-25T04:01:50.175249"
    },
    {
      "id": "12efb930-91a0-46a4-897f-6f63309f1765",
      "name": "Cuyahoga Valley",
      "state": "OH",
      "lat": 41.26093905,
      "lon": -81.57116722,
      "source_id": "cuva",
      "notes": null,
      "created_at": "2025-11-25T04:01:50.200416"
    },
    {
      "id": "9cba7d5a-a601-4ee7-9c99-4c6d13d5225a",
      "name": "Death Valley",
      "state": "CA,NV",
      "lat": 36.48753731,
      "lon": -117.134395,
      "source_id": "deva",
      "notes": null,
      "created_at": "2025-11-25T04:01:50.227291"
    },
    {
      "id": "4d55d6ec-dff6-4e52-aab5-26875002ee53",
      "name": "Denali",
      "state": "AK",
      "lat": 63.29777484,
      "lon": -151.0526568,
      "source_id": "dena",
      "notes": null,
      "created_at": "2025-11-25T04:01:50.282753"
    },
    {
      "id": "6dfb4702-11a4-468a-b59b-1d1213b21c05",
      "name": "Dry Tortugas",
      "state": "FL",
      "lat": 24.628741,
      "lon": -82.87319,
      "source_id": "drto",
      "notes": null,
      "created_at": "2025-11-25T04:01:50.308242"
    },
    {
      "id": "57f5078d-c012-42bc-b088-ff2fd39406ac",
      "name": "Everglades",
      "state": "FL",
      "lat": 25.37294225,
      "lon": -80.88200301,
      "source_id": "ever",
      "notes": null,
      "created_at": "2025-11-25T04:01:50.335791"
    },
    {
      "id": "9d638747-6a13-48ae-8ded-69bb756c5924",
      "name": "Gates Of The Arctic",
      "state": "AK",
      "lat": 67.75961636,
      "lon": -153.2917758,
      "source_id": "gaar",
      "notes": null,
      "created_at": "2025-11-25T04:01:50.363570"
    },
    {
      "id": "e4d7e638-370e-415a-b38a-0a0ef33c6bcd",
      "name": "Gateway Arch",
      "state": "MO",
      "lat": 38.6258069,
      "lon": -90.1892508,
      "source_id": "jeff",
      "notes": null,
      "created_at": "2025-11-25T04:01:50.389167"
    },
    {
      "id": "2f27b195-a40b-4ab3-8b9b-bc76cbce9c09",
      "name": "Glacier",
      "state": "MT",
      "lat": 48.68414678,
      "lon": -113.8009306,
      "source_id": "glac",
      "notes": null,
      "created_at": "2025-11-25T04:01:50.416478"
    },
    {
      "id": "1397bfef-2ad4-4710-b881-ad997936a8b7",
      "name": "Glacier Bay",
      "state": "AK",
      "lat": 58.80086718,
      "lon": -136.8407579,
      "source_id": "glba",
      "notes": null,
      "created_at": "2025-11-25T04:01:50.443915"
    },
    {
      "id": "d3a008c3-f1ce-401c-840f-4815e858f120",
      "name": "Grand Canyon",
      "state": "AZ",
      "lat": 36.0001165336,
      "lon": -112.121516363,
      "source_id": "grca",
      "notes": null,
      "created_at": "2025-11-25T04:01:50.476078"
    },
    {
      "id": "abb58325-cf66-4b05-bb95-0d7213197ee6",
      "name": "Grand Teton",
      "state": "WY",
      "lat": 43.81853565,
      "lon": -110.7054666,
      "source_id": "grte",
      "notes": null,
      "created_at": "2025-11-25T04:01:50.516646"
    },
    {
      "id": "4a7ebcf8-a830-43c2-a4bc-85134e5258e5",
      "name": "Great Basin",
      "state": "NV",
      "lat": 38.94617378,
      "lon": -114.2579782,
      "source_id": "grba",
      "notes": null,
      "created_at": "2025-11-25T04:01:50.547517"
    },
    {
      "id": "293a7946-0300-4235-855a-2c9e12144feb",
      "name": "Great Sand Dunes",
      "state": "CO",
      "lat": 37.79256812,
      "lon": -105.5919572,
      "source_id": "grsa",
      "notes": null,
      "created_at": "2025-11-25T04:01:50.573546"
    },
    {
      "id": "d3c48bdf-d07b-4b0f-abf9-c691cbd413ee",
      "name": "Great Smoky Mountains",
      "state": "NC,TN",
      "lat": 35.60116374,
      "lon": -83.50818326,
      "source_id": "grsm",
      "notes": null,
      "created_at": "2025-11-25T04:01:50.598801"
    },
    {
      "id": "3f18677e-5f85-4fd1-9519-1c49dc5c61bd",
      "name": "Guadalupe Mountains",
      "state": "TX",
      "lat": 31.92304462,
      "lon": -104.885527,
      "source_id": "gumo",
      "notes": null,
      "created_at": "2025-11-25T04:01:50.625472"
    },
    {
      "id": "a48fa60e-ae35-47d1-9a46-aa032172a565",
      "name": "Haleakal\u0101",
      "state": "HI",
      "lat": 20.70693015,
      "lon": -156.1591775,
      "source_id": "hale",
      "notes": null,
      "created_at": "2025-11-25T04:01:50.656663"
    },
    {
      "id": "53eb466a-94e5-4e64-af75-81a71a9b4420",
      "name": "Hawai\u02bbi Volcanoes",
      "state": "HI",
      "lat": 19.3355036,
      "lon": -155.4700257,
      "source_id": "havo",
      "notes": null,
      "created_at": "2025-11-25T04:01:50.683843"
    },
    {
      "id": "9a02f862-e2fb-4201-93fd-bdb9ce2ab540",
      "name": "Hot Springs",
      "state": "AR",
      "lat": 34.52414366,
      "lon": -93.06332936,
      "source_id": "hosp",
      "notes": null,
      "created_at": "2025-11-25T04:01:50.745486"
    },
    {
      "id": "cdf2b604-6bf1-4e3b-9452-c25be6245590",
      "name": "Indiana Dunes",
      "state": "IN",
      "lat": 41.63765525,
      "lon": -87.09647445,
      "source_id": "indu",
      "notes": null,
      "created_at": "2025-11-25T04:01:50.774246"
    },
    {
      "id": "c0928392-f16c-4356-911e-2f01f9446ddc",
      "name": "Isle Royale",
      "state": "MI",
      "lat": 48.01145819,
      "lon": -88.82780657,
      "source_id": "isro",
      "notes": null,
      "created_at": "2025-11-25T04:01:50.799918"
    },
    {
      "id": "533b10a9-9553-43b9-8a39-d58433a8ec98",
      "name": "Joshua Tree",
      "state": "CA",
      "lat": 33.91418525,
      "lon": -115.8398125,
      "source_id": "jotr",
      "notes": null,
      "created_at": "2025-11-25T04:01:50.825598"
    },
    {
      "id": "bd269ae1-7012-4729-a54c-e97960c38812",
      "name": "Katmai",
      "state": "AK",
      "lat": 58.62235668,
      "lon": -155.0126574,
      "source_id": "katm",
      "notes": null,
      "created_at": "2025-11-25T04:01:50.850956"
    },
    {
      "id": "1543e94b-7b39-4434-9d29-6afdddf7fb19",
      "name": "Kenai Fjords",
      "state": "AK",
      "lat": 59.81804414,
      "lon": -150.106502,
      "source_id": "kefj",
      "notes": null,
      "created_at": "2025-11-25T04:01:50.870486"
    },
    {
      "id": "cf16f224-a840-4fa4-b93f-c70082228f7f",
      "name": "Kobuk Valley",
      "state": "AK",
      "lat": 67.35631336,
      "lon": -159.2002293,
      "source_id": "kova",
      "notes": null,
      "created_at": "2025-11-25T04:01:50.897104"
    },
    {
      "id": "f1db5174-aa24-492f-b0db-e49d127b6c29",
      "name": "Lake Clark",
      "state": "AK",
      "lat": 60.57405857,
      "lon": -153.55535,
      "source_id": "lacl",
      "notes": null,
      "created_at": "2025-11-25T04:01:50.923864"
    },
    {
      "id": "ca31ad1a-6c50-4a16-a974-3a46ae397fd7",
      "name": "Lassen Volcanic",
      "state": "CA",
      "lat": 40.49354575,
      "lon": -121.4075993,
      "source_id": "lavo",
      "notes": null,
      "created_at": "2025-11-25T04:01:50.951218"
    },
    {
      "id": "6c2a9809-5d8d-454b-b092-79c50518cc78",
      "name": "Mammoth Cave",
      "state": "KY",
      "lat": 37.19760458,
      "lon": -86.13090198,
      "source_id": "maca",
      "notes": null,
      "created_at": "2025-11-25T04:01:50.977865"
    },
    {
      "id": "fa89696c-3705-48b7-9d6e-1f63dbb82d62",
      "name": "Mesa Verde",
      "state": "CO",
      "lat": 37.23908345,
      "lon": -108.4624032,
      "source_id": "meve",
      "notes": null,
      "created_at": "2025-11-25T04:01:51.003762"
    },
    {
      "id": "b08dfa6c-277b-4686-a417-69166ea97d7b",
      "name": "Mount Rainier",
      "state": "WA",
      "lat": 46.86075416,
      "lon": -121.7043885,
      "source_id": "mora",
      "notes": null,
      "created_at": "2025-11-25T04:01:51.029420"
    },
    {
      "id": "86c37112-f5a9-43c2-ae30-beb58ac75618",
      "name": "New River Gorge",
      "state": "WV",
      "lat": 37.86878554,
      "lon": -80.99956002,
      "source_id": "neri",
      "notes": null,
      "created_at": "2025-11-25T04:01:51.055024"
    },
    {
      "id": "1b03f727-a120-40f6-b857-1d44c94ba1b4",
      "name": "North Cascades",
      "state": "WA",
      "lat": 48.71171756,
      "lon": -121.2069423,
      "source_id": "noca",
      "notes": null,
      "created_at": "2025-11-25T04:01:51.080566"
    },
    {
      "id": "898c4633-0c5c-427a-a9b8-5fa746429379",
      "name": "Olympic",
      "state": "WA",
      "lat": 47.80392754,
      "lon": -123.6663848,
      "source_id": "olym",
      "notes": null,
      "created_at": "2025-11-25T04:01:51.106099"
    },
    {
      "id": "b6b62621-0d41-4324-a47e-c13c176d4af0",
      "name": "Petrified Forest",
      "state": "AZ",
      "lat": 34.98387664,
      "lon": -109.7877678,
      "source_id": "pefo",
      "notes": null,
      "created_at": "2025-11-25T04:01:51.132978"
    },
    {
      "id": "85749b7d-9a5c-4af2-973d-e962e517b3f8",
      "name": "Pinnacles",
      "state": "CA",
      "lat": 36.49029208,
      "lon": -121.1813607,
      "source_id": "pinn",
      "notes": null,
      "created_at": "2025-11-25T04:01:51.158940"
    },
    {
      "id": "46b40ed2-2a91-4eae-8760-6ea5073affa7",
      "name": "Rocky Mountain",
      "state": "CO",
      "lat": 40.3556924,
      "lon": -105.6972879,
      "source_id": "romo",
      "notes": null,
      "created_at": "2025-11-25T04:01:51.185488"
    },
    {
      "id": "42a092be-2a11-4e2a-a914-f89becdc8471",
      "name": "Saguaro",
      "state": "AZ",
      "lat": 32.20909636,
      "lon": -110.7574974,
      "source_id": "sagu",
      "notes": null,
      "created_at": "2025-11-25T04:01:51.245501"
    },
    {
      "id": "8809f15e-b65a-4031-819d-651e4c388154",
      "name": "Sequoia & Kings Canyon",
      "state": "CA",
      "lat": 36.71277299,
      "lon": -118.587429,
      "source_id": "seki",
      "notes": null,
      "created_at": "2025-11-25T04:01:51.277590"
    },
    {
      "id": "8216b01f-0c22-4515-9cc1-9b68f7d3e032",
      "name": "Shenandoah",
      "state": "VA",
      "lat": 38.49236644,
      "lon": -78.46907715,
      "source_id": "shen",
      "notes": null,
      "created_at": "2025-11-25T04:01:51.304661"
    },
    {
      "id": "a041a7ca-de62-4154-a5f8-9328724d4260",
      "name": "Theodore Roosevelt",
      "state": "ND",
      "lat": 47.17777274,
      "lon": -103.4300083,
      "source_id": "thro",
      "notes": null,
      "created_at": "2025-11-25T04:01:51.334389"
    },
    {
      "id": "84c4ccc3-f936-4c37-9a51-59074020dd08",
      "name": "Virgin Islands",
      "state": "VI",
      "lat": 18.34279656,
      "lon": -64.74194451,
      "source_id": "viis",
      "notes": null,
      "created_at": "2025-11-25T04:01:51.398514"
    },
    {
      "id": "78705c7c-0263-40b9-b68b-dadd61652bf3",
      "name": "Voyageurs",
      "state": "MN",
      "lat": 48.48370609,
      "lon": -92.8382913,
      "source_id": "voya",
      "notes": null,
      "created_at": "2025-11-25T04:01:51.429314"
    },
    {
      "id": "4ec9ed93-7c8a-42c6-b5c0-8c8305e41a84",
      "name": "White Sands",
      "state": "NM",
      "lat": 32.77907858,
      "lon": -106.3333461,
      "source_id": "whsa",
      "notes": null,
      "created_at": "2025-11-25T04:01:51.460128"
    },
    {
      "id": "9550caf5-7f7d-408d-8620-a3a2b506c529",
      "name": "Wind Cave",
      "state": "SD",
      "lat": 43.58012365,
      "lon": -103.4394709,
      "source_id": "wica",
      "notes": null,
      "created_at": "2025-11-25T04:01:51.491028"
    },
    {
      "id": "57e440e8-a08d-43e7-b0ed-ae46fe4ef6d7",
      "name": "Wrangell - St Elias",
      "state": "AK",
      "lat": 61.4182147,
      "lon": -142.6028439,
      "source_id": "wrst",
      "notes": null,
      "created_at": "2025-11-25T04:01:51.519514"
    },
    {
      "id": "8e4a3d49-dd57-48ca-9b27-38200c29aaac",
      "name": "Yellowstone",
      "state": "ID,MT,WY",
      "lat": 44.59824417,
      "lon": -110.5471695,
      "source_id": "yell",
      "notes": null,
      "created_at": "2025-11-25T04:01:51.549650"
    },
    {
      "id": "133efda2-0052-4e23-ada5-898a6ba0934a",
      "name": "Yosemite",
      "state": "CA",
      "lat": 37.84883288,
      "lon": -119.5571873,
      "source_id": "yose",
      "notes": null,
      "created_at": "2025-11-25T04:01:51.577122"
    },
    {
      "id": "19d1d59e-e481-4591-8d74-87c6263e0f20",
      "name": "Zion",
      "state": "UT",
      "lat": 37.29839254,
      "lon": -113.0265138,
      "source_id": "zion",
      "notes": null,
      "created_at": "2025-11-25T04:01:51.604884"
    },
    {
      "id": "b715d2cb-e752-4fbf-b116-f6ae5d136e65",
      "name": "zion",
      "state": "us",
      "lat": null,
      "lon": null,
      "source_id": null,
      "notes": null,
      "created_at": "2025-11-25T18:53:20.723277"
    },
    {
      "id": "cb24f8f2-e134-4f2b-9a19-0c8e5a18e3eb",
      "name": "zion",
      "state": "jk",
      "lat": null,
      "lon": null,
      "source_id": null,
      "notes": null,
      "created_at": "2025-11-25T18:56:26.676387"
    },
    {
      "id": "bf13a45a-2bf0-4330-914a-f275a817febd",
      "name": "Test Park",
      "state": "TS",
      "lat": null,
      "lon": null,
      "source_id": null,
      "notes": "note: fav campsite",
      "created_at": "2025-11-25T20:21:30.365366"
    },
    {
      "id": "a993735b-b4aa-4cb2-9d58-b91ff02f812f",
      "name": "india",
      "state": "il",
      "lat": null,
      "lon": null,
      "source_id": null,
      "notes": "warm",
      "created_at": "2025-11-25T20:32:32.507953"
    },
    {
      "id": "2c56aa61-261f-4eec-bbf6-e160e3d41965",
      "name": "w",
      "state": "ww",
      "lat": null,
      "lon": null,
      "source_id": null,
      "notes": "e",
      "created_at": "2025-11-26T03:01:14.926155"
    }
  ],
  "visits": []
}